<?xml version="1.0" encoding="UTF-8"?>
<kml xmlns="http://www.opengis.net/kml/2.2">
  <Document>
    <name>Cities</name>
    <description/>
    <Style id="icon-1899-0288D1-nodesc-normal">
      <IconStyle>
        <color>ffd18802</color>
        <scale>1</scale>
        <Icon>
          <href>http://www.gstatic.com/mapspro/images/stock/503-wht-blank_maps.png</href>
        </Icon>
        <hotSpot x="16" xunits="pixels" y="32" yunits="insetPixels"/>
      </IconStyle>
      <LabelStyle>
        <scale>0</scale>
      </LabelStyle>
      <BalloonStyle>
        <text><![CDATA[<h3>$[name]</h3>]]></text>
      </BalloonStyle>
    </Style>
    <Style id="icon-1899-0288D1-nodesc-highlight">
      <IconStyle>
        <color>ffd18802</color>
        <scale>1</scale>
        <Icon>
          <href>http://www.gstatic.com/mapspro/images/stock/503-wht-blank_maps.png</href>
        </Icon>
        <hotSpot x="16" xunits="pixels" y="32" yunits="insetPixels"/>
      </IconStyle>
      <LabelStyle>
        <scale>1</scale>
      </LabelStyle>
      <BalloonStyle>
        <text><![CDATA[<h3>$[name]</h3>]]></text>
      </BalloonStyle>
    </Style>
    <StyleMap id="icon-1899-0288D1-nodesc">
      <Pair>
        <key>normal</key>
        <styleUrl>#icon-1899-0288D1-nodesc-normal</styleUrl>
      </Pair>
      <Pair>
        <key>highlight</key>
        <styleUrl>#icon-1899-0288D1-nodesc-highlight</styleUrl>
      </Pair>
    </StyleMap>
    <Folder>
      <name>Calque sans titre</name>
      <Placemark>
        <name>Bogota</name>
        <styleUrl>#icon-1899-0288D1-nodesc</styleUrl>
        <Point>
          <coordinates>
            -74.072092,4.7109886,0
          </coordinates>
        </Point>
      </Placemark>
      <Placemark>
        <name>Medellin</name>
        <styleUrl>#icon-1899-0288D1-nodesc</styleUrl>
        <Point>
          <coordinates>
            -75.6664319,6.2686734,12
          </coordinates>
        </Point>
      </Placemark>
      <Placemark>
        <name>Cali</name>
        <styleUrl>#icon-1899-0288D1-nodesc</styleUrl>
        <Point>
          <coordinates>
            -76.5957039,3.3950619,12
          </coordinates>
        </Point>
      </Placemark>
      <Placemark>
        <name>Barranquilla</name>
        <styleUrl>#icon-1899-0288D1-nodesc</styleUrl>
        <Point>
          <coordinates>
            -74.853037,10.9838099,13
          </coordinates>
        </Point>
      </Placemark>
      <Placemark>
        <name>Villavicencio</name>
        <styleUrl>#icon-1899-0288D1-nodesc</styleUrl>
        <Point>
          <coordinates>
            -73.6440795,4.1247567,13
          </coordinates>
        </Point>
      </Placemark>
      <Placemark>
        <name>Sergio Arboleda</name>
        <styleUrl>#icon-1899-0288D1-nodesc</styleUrl>
        <Point>
          <coordinates>
            -74.0619948,4.6609476,17
          </coordinates>
        </Point>
      </Placemark>
      <Placemark>
        <name>Palacio de Nariño</name>
        <styleUrl>#icon-1899-0288D1-nodesc</styleUrl>
        <Point>
          <coordinates>
            -74.0794762,4.5954862,17
          </coordinates>
        </Point>
      </Placemark>
      <Placemark>
        <name>Avenida Boyacá #74-31</name>
        <styleUrl>#icon-1899-0288D1-nodesc</styleUrl>
        <Point>
          <coordinates>
            -74.0956623,4.6897512,17
          </coordinates>
        </Point>
      </Placemark>
    </Folder>
    <Folder>
      <name>Calque sans titre</name>
    </Folder>
  </Document>
</kml>
